stop_id,stop_code,stop_name,stop_lat,stop_lon,stop_url,location_type
101,101,Est. Pacho Galan,10.915247,-74.79922,,1
102,102,Est. Pedro Ramaya,10.921185,-74.799265,,1
103,103,Est. Joaquin Barrios Polo,10.932678,-74.799372,,1
104,104,Est. Buenos Aires,10.941537,-74.79964,,1
105,105,Est. La Ocho,10.946562,-74.799847,,1
106,106,Est. La Catorce,10.954782,-74.796685,,1
107,107,Est. La Veintiuna,10.960322,-74.793867,,1
108,108,Est. Atlantico,10.968535,-74.790495,,1
109,109,Est. Chiquinquira,10.976947,-74.787958,,1
110,110,Est. La Arenosa,10.981927,-74.786448,,1
201,201,Est. Parque Cultural del Caribe,10.985792,-74.777985,,1
202,202,Est. Barrio Abajo,10.98691,-74.783718,,1
203,203,Est. La Catedral,10.988238,-74.788445,,1
204,204,Est. Alfredo Correa de Andreis,10.990375,-74.795923,,1
205,205,Est. Esthercita Forero,10.992468,-74.802465,,1
206,206,Est. Joe Arroyo,10.994833,-74.807445,,1
2102,2102,Calle 45D Frente Nom 1 -101,10.931347,-74.800533,,0
2103,2103,Carrera 1E Frente Bloque 159,10.931865,-74.802072,,0
2104,2104,Avenida las torres Frente Nom. 45H-42,10.930277,-74.802065,,0
2105,2105,Avenida las torres Nom. 41C-93,10.929695,-74.796522,,0
2106,2106,Avenida las torres Nom. 56A-93,10.929483,-74.79439,,0
2107,2107,Avenida las torres Calle 44B,10.929922,-74.798772,,0
2108,2108,Avenida las torres con calle 54 D,10.929482,-74.791593,,0
2109,2109,Avenida las torres Nom. 48-25,10.930147,-74.78906,,0
2110,2110,Avenida las torres Nom 44-33,10.930925,-74.78645,,0
2112,2112,Calle 30 ITIDA,10.930997,-74.780267,,0
2113,2113,Calle 30 carrera 30,10.927345,-74.77786,,0
2114,2114,Carrera 30 Calle 29,10.928045,-74.774838,,0
2115,2115,Carrera 30 Calle 27,10.927622,-74.772903,,0
2116,2116,Carrera 30 Nom 24-151,10.926817,-74.76981,,0
2118,2118,Carrera 30 Nom. 18-53,10.926412,-74.76464,,0
2119,2119,Calle 18 carrera 27,10.924445,-74.763768,,0
2120,2120,Calle 18 No. 25A-16,10.92153,-74.763537,,0
2121,2121,Calle 18 No. 23-37,10.919673,-74.764115,,0
2122,2122,Calle 18 No. 21-37,10.917542,-74.765113,,0
2123,2123,Carrera 19 Frente Nom. 20-19,10.916582,-74.7671,,0
2124,2124,Calle 23 Carrera 19A esquina,10.917762,-74.768873,,0
2125,2125,Calle 23 No. 22-36,10.920545,-74.768107,,0
2126,2126,Calle 23 No. 25-40,10.922783,-74.767398,,0
2127,2127,Carrera 26 No. 24A-32,10.923965,-74.768765,,0
2128,2128,Carrera 30 Calle 27 Esquina,10.927552,-74.772697,,0
2129,2129,Carrera 30 29C- Esquina,10.927883,-74.775767,,0
2130,2130,Carrera 30 Calle 30,10.92744,-74.77775,,0
2131,2131,Calle 30 Entrada al Tucan,10.930023,-74.779742,,0
2132,2132,Calle 30 INEM,10.93168,-74.78023,,0
2133,2133,Avenida las torres Circunvalar Iglesia,10.931798,-74.784507,,0
2134,2134,Av. Las Torres  Colegio Olga Castellano de Levolo,10.930985,-74.787303,,0
2135,2135,Avenida las torres Calle 54,10.929845,-74.790683,,0
2136,2136,Avenida las torres  56A-12,10.929528,-74.793657,,0
2137,2137,Avenida las torres 41C-92,10.929863,-74.796545,,0
2138,2138,Avenida las torres 43-76,10.930047,-74.798235,,0
2139,2139,Avenida Las Torres Calle 45,10.930197,-74.799847,,0
2140,2140,Calle 47 con carrera 6D sur,10.928177,-74.805123,,0
2141,2141,Carrera 1E No. 45H-41,10.93184,-74.801897,,0
2145,2145,Carrera 30 Con Calle 25,10.926667,-74.768853,,0
4080,4080,Via 40 Calle 83 - 53,11.025298,-74.802958,,0
4676,4676,Carrera 46 No 76 - 109,10.997287,-74.810998,,0
4680,4680,Carrera 46 No 80 - 211,11.000155,-74.816007,,0
6480,6480,Carrera 64 No 80 - 90,11.01145,-74.807532,,0
6584,6584,Carrera 65 No 84 - 52,11.013717,-74.810343,,0
6585,6585,Carrera 65 Calle 85 Conj. Villa Andalucia,11.015947,-74.811937,,0
7668,7668,Calle 76 Cra 68 Zoologico,11.010262,-74.797417,,0
7951,7951,Calle 79 No 51-62,11.002337,-74.809367,,0
7953,7953,Calle 79 No 53-54,11.004785,-74.807912,,0
8072,8072,Calle 80 No. 72 - 43 Esquina,11.016795,-74.805148,,0
8075,8075,Calle 80 No 75 - 25,11.01863,-74.804693,,0
8078,8078,Calle 80 No 78- 19,11.02025,-74.803633,,0
8246,8246,Calle 82 Cra 47 Esquina,11.00098,-74.816577,,0
8251,8251,Calle 82 Con Carrera 51 Esq,11.004838,-74.814117,,0
8252,8252,Calle 82 No 52 - 61,11.005705,-74.813603,,0
8259,8259,Calle 82 Cra 59B Esq.,11.011138,-74.810875,,0
8447,8447,Calle 84 No 47 - 54,11.00277,-74.818557,,0
8452,8452,Calle 84  No 52 - 76,11.00711,-74.816629,,0
8455,8455,Calle 84 No 55 - 82,11.00856,-74.814133,,0
8459,8459,Calle 84 No 59 - 40,11.011007,-74.81163,,0
8579,8579,Calle 85 No. 78D - 26 ,11.024627,-74.805728,,0
8673,8673,Calle 86 No 73 -218,11.020403,-74.809663,,0
8675,8675,Calle 86 No 75C - 146,11.021702,-74.807692,,0
9156,9156,Carrera 54 calle 75-56,11.002463,-74.80423,,0
9157,9157,Carrera 54 calle 74,11.000818,-74.803025,,0
10101,10101,Carrera 41 Con Calle 45 Domesa,10.981627,-74.78725,,0
10108,10108,Carrera 43 No. 39-26,10.98196,-74.781695,,0
10109,10109,Carrera 43 No. 43 - 16,10.982552,-74.784433,,0
10110,10110,Carrera 43 No. 45-68,10.983073,-74.786588,,0
11118,11118,Carrera 14 con calle 47,10.908438,-74.784507,,0
11202,11202,Carrera 8 No. 42-127,10.946107,-74.798475,,0
11203,11203,Carrera 8 con calle 41 esq,10.946113,-74.795858,,0
11204,11204,Carrera 8 No. 36B-125,10.945887,-74.793093,,0
11205,11205,Carrera 8 con calle 35A esq,10.94619,-74.790928,,0
11208,11208,Carrera 6B con calle 34C esq,10.942427,-74.788677,,0
11211,11211,Calle 41 No. 6B-32,10.94187,-74.795853,,0
11212,11212,Calle 41 No. 7D-04 Tienda La Milagrosa,10.943802,-74.79617,,0
11213,11213,Carrera 8 No. 40-32,10.946245,-74.795742,,0
11214,11214,Carrera 8 con calle 42B esq,10.946242,-74.797833,,0
11215,11215,Carrera 8A No. 44-52,10.946755,-74.79941,,0
11301,11301,Carrera 2E No. 44B-13,10.934835,-74.798927,,0
11302,11302,Carrera 2B No. 42A-05,10.934503,-74.797133,,0
11303,11303,Carrera 2 con calle 41B1 esq,10.934665,-74.795345,,0
11304,11304,Carrera 2 Calle 37 E - 23,10.934828,-74.792567,,0
11305,11305,Calle 37C Con Carrera 2 Esq,10.934685,-74.791298,,0
11306,11306,Calle 37C con Carrera 3A,10.937258,-74.791567,,0
11307,11307,Carrera 4 con calle 36 Esq,10.938947,-74.790488,,0
11308,11308,Carrera 4 con calle 34B Esq,10.939295,-74.788622,,0
11310,11310,Carrera 4 con calle 30,10.939838,-74.783297,,0
11311,11311,Carrera 2 con calle 30,10.937722,-74.782895,,0
11312,11312,Carrera 2 con calle 33A esq,10.936585,-74.78478,,0
11313,11313,Carrera 2 con calle 34 esq,10.935955,-74.786967,,0
11314,11314,Carrera 2 con calle 35A esq,10.935437,-74.789325,,0
11315,11315,Calle 37C Carrera 2 Tienda El danubio,10.93562,-74.790987,,0
11316,11316,Calle 37C con Carrera 1H esq,10.932828,-74.791708,,0
11317,11317,Carrera 1H con calle 41B esq,10.933708,-74.79478,,0
11318,11318,Carrera 1H No 41B - 236,10.933242,-74.796837,,0
11319,11319,Carrera 1H con calle 45 esq,10.932732,-74.798927,,0
11320,11320,Carrera 4 con Calle 31-88,10.939613,-74.786048,,0
11350,11350,Calle 49 con Carrera 8B sur Cayenas,10.924822,-74.811538,,0
11351,11351,Calle 49 con Carrera 12 sur,10.923305,-74.812088,,0
11352,11352,Av.Circunvalar con Calle 51B,10.922777,-74.814132,,0
11353,11353,Calle 51B con Carrera 10 Sur,10.925147,-74.81477,,0
11354,11354,Carrera 10 Sur con Calle 50A,10.924185,-74.812707,,0
11355,11355,PASO Cayenas fren. Nom 8B sur - 24 ,10.924512,-74.811633,,0
16102,16102,Carrera 20 Con Calle 46 Tienda El Bacano de la 20,10.96147,-74.796142,,0
16103,16103,Calle 47 No. 19-11,10.961548,-74.798068,,0
16104,16104,Calle 47 No. 16-167,10.960532,-74.800138,,0
16105,16105,Calle 47 No. 14-67,10.959108,-74.802737,,0
16106,16106,Calle 56 con carrera 13,10.957392,-74.804908,,0
16107,16107,Calle 56 No. 11-15,10.956028,-74.806272,,0
16108,16108,Calle 56 No. 10-03,10.954745,-74.807568,,0
16109,16109,Calle 56 No. 9-29,10.951748,-74.810507,,0
16110,16110,Calle 56 con carrera 8 esq,10.949843,-74.812363,,0
16111,16111,Carrera 6 Con Calle 60 Carrefour,10.948098,-74.814838,,0
16112,16112,Carrera 6 Con Calle 72,10.947553,-74.816358,,0
16113,16113,Carrera 6 con calle 74,10.946745,-74.818727,,0
16114,16114,Carrera 6 No. 76-80,10.945462,-74.822432,,0
16115,16115,Carrera 6 No. 91-44 Compra-Venta E. Jimenez,10.944605,-74.825053,,0
16116,16116,Carrera 6 con calle 98C,10.943733,-74.829087,,0
16117,16117,Calle 99B con carrera 5B,10.9426,-74.83045,,0
16120,16120,Carrera 6 con calle 99B Frente a Bloquera,10.943315,-74.830665,,0
16121,16121,Carrera 6 Con Calle 98B Equipos Universal,10.943858,-74.82809,,0
16123,16123,Carrera 6 No. 75B-77 Compra Venta,10.94586,-74.821138,,0
16124,16124,Carrera 6 No. 73C-05,10.947207,-74.817115,,0
16125,16125,Carrera 6 No. 60-155,10.947785,-74.815433,,0
16126,16126,Calle 56 No. 5C-02,10.948907,-74.813315,,0
16127,16127,Calle 56 No. 8E1-68,10.951723,-74.810458,,0
16128,16128,Calle 56 Con Carrera 9D Olimpica,10.954148,-74.808147,,0
16129,16129,Calle 56 Con Carrera 10B Uniapuestas,10.955238,-74.807072,,0
16130,16130,Calle 56 No. 11-34,10.95657,-74.80575,,0
16131,16131,Calle 56 No. 13B-60,10.958407,-74.803655,,0
16132,16132,Calle 47 No. 16-12 Central de Materiales,10.95987,-74.801403,,0
16133,16133,Calle 47 No. 18-122,10.961202,-74.79871,,0
16134,16134,Calle 47 No. 20-82 AOTEC,10.962427,-74.796127,,0
16201,16201,Calle 90 No. 5D-11,10.944412,-74.824035,,0
16202,16202,Calle 90 No. 5-05,10.94277,-74.824012,,0
16203,16203,Calle 90 No 4-15 Iglesia Cristiana ,10.94071,-74.824082,,0
16204,16204,Calle 90 No. 3-23,10.93868,-74.824063,,0
16205,16205,Calle 90 No. 2-21 Drogueria la Redonda de la 90,10.936555,-74.824082,,0
16214,16214,Carrera 4 Sur No 99C Esq,10.933107,-74.831785,,0
16215,16215,Carrera 4 Sur No 99-47,10.932843,-74.830757,,0
16216,16216,Carrera 4 sur No 96 - 12,10.932843,-74.82795,,0
16217,16217,Carrera 4 sur No. 91-40,10.932773,-74.826117,,0
16218,16218,Calle 91 No. 1-32,10.934797,-74.825275,,0
16220,16220,Carrera 2C No. 92-50,10.93739,-74.826528,,0
16221,16221,Calle 94 No. 3A-42,10.93944,-74.826802,,0
16222,16222,Calle 94 con carrera 4B esq,10.941622,-74.826662,,0
16601,16601,Tv 14 sur con calle 45,10.93025,-74.799877,,0
16602,16602,Tv 14 sur con calle 45H,10.93041,-74.801802,,0
16603,16603,Carrera 6 sur con calle 46F esq,10.93014,-74.803898,,0
16604,16604,Carrera 6 sur con calle 47 esq,10.929058,-74.805548,,0
16605,16605,Carrera 6 sur con Cll47B,10.927633,-74.807463,,0
16606,16606,Carrera 6 sur con calle 48F,10.926347,-74.810113,,0
16607,16607,Calle 49 con carrera 5B sur,10.927535,-74.810925,,0
16608,16608,Calle 49 con carrera 3 sur,10.929263,-74.810445,,0
16609,16609,Carrera 1 con calle 48C ,10.93091,-74.809012,,0
16610,16610,Carrera 1 No. 47B-03 ,10.930875,-74.807262,,0
16611,16611,Calle 47 No. 3A sur - 18,10.929378,-74.805965,,0
16613,16613,Carrera 7 sur No. 46-29,10.927993,-74.803052,,0
16614,16614,Calle 46 con carrera 1 sur esq,10.930078,-74.802598,,0
16616,16616,Carrera 1E  Calle 45 Metrocentro,10.931807,-74.799743,,0
17101,17101,Carrera 46 No. 76-68,10.99712,-74.81069,,0
17102,17102,Carrera 46 no. 79-204,10.998975,-74.813827,,0
17103,17103,Carrera 46 No. 81-102,11.000343,-74.816172,,0
17104,17104,Carrera 46 No. 84-126,11.002042,-74.820122,,0
17105,17105,Carrera 46 con calle 90 Uniautonoma,11.00344,-74.824065,,0
17106,17106,Carrera 46 No. 93-44 El Corral,11.005222,-74.827978,,0
17109,17109,Carrera 43 No. 98-86,11.003392,-74.833915,,0
17117,17117,Carrera 46 No. 85-163,11.002598,-74.822492,,0
17118,17118,Carrera 46 No. 82-205,11.001358,-74.818477,,0
17119,17119,Carrera 46 No. 80-211,11.00018,-74.816023,,0
17120,17120,Carrera 46 No. 79-175,10.998798,-74.8136,,0
17121,17121,Carrera 46 No. 76-109,10.997237,-74.810953,,0
17123,17123,Calle 93 con Carrera 42F,11.000185,-74.829543,,0
17124,17124,Calle 93 con Carrera 42C,10.997755,-74.830443,,0
17125,17125,Calle 96 con Calle 96A,10.999927,-74.83129,,0
17126,17126,Calle 97 Con Carrera 42G1,11.001248,-74.832198,,0
17127,17127,Calle 98 Con Carrera 42G2,11.002163,-74.833437,,0
17128,17128,Carrera 42G1 Con Calle 100,11.005243,-74.835023,,0
17129,17129,Calle 100 con Carrera 44,11.006995,-74.834242,,0
17131,17131,Calle 93 con Carrera 49C,11.00661,-74.826237,,0
17132,17132,Calle 93 con Carrera 45B,11.004145,-74.827102,,0
17516,17516,Carrera 24 Con Calle 44A,10.921272,-74.798632,,0
18202,18202,Calle 79 No. 47-10,10.99878,-74.811612,,0
18205,18205,Calle 79 No. 55-154,11.006527,-74.80679,,0
18206,18206,Calle 79 No. 57-190,11.008503,-74.805203,,0
18207,18207,Carrera 60 con calle 77B,11.008373,-74.80206,,0
18208,18208,Calle 77 No. 62-40,11.008762,-74.800668,,0
18209,18209,Calle 77 con carrera 68,11.011585,-74.798637,,0
18210,18210,Calle 77 con carrera 71,11.012723,-74.797825,,0
18211,18211,Calle 77 con via 40,11.015658,-74.79568,,0
18212,18212,Calle 76 con via 40,11.014287,-74.794432,,0
18213,18213,Calle 76 con carrera 72,11.012275,-74.795943,,0
18215,18215,Calle 76 con carrera 60,11.007005,-74.799925,,0
18216,18216,Calle 76 con carrera 57,11.005315,-74.80228,,0
18217,18217,Calle 76 con carrera 53,11.002982,-74.805475,,0
18218,18218,Calle 76 No. 50-13,11.000677,-74.808055,,0
18219,18219,Calle 76 No. 47-57,10.997883,-74.809325,,0
18303,18303,Calle 53 con carrera 52,10.991605,-74.789192,,0
18304,18304,Carrera 54 con calle 54,10.992878,-74.790672,,0
18305,18305,Carrera 54 No. 58-78,10.993478,-74.79223,,0
18306,18306,Carrera 54 No. 59-144,10.995495,-74.79417,,0
18307,18307,Carrera 58 No. 64-162,10.997355,-74.795488,,0
18308,18308,Carrera 58 No. 70-66,11.000753,-74.798018,,0
18309,18309,Carrera 58 No. 74-138,11.003948,-74.800405,,0
18311,18311,Calle 76 con carrera 55,11.004092,-74.803937,,0
18312,18312,Carrera 54 No. 75-119,11.002838,-74.804682,,0
18313,18313,Carrera 54 No. 72-73,10.999658,-74.802185,,0
18314,18314,Carrera 54 No. 68-189,10.997763,-74.799103,,0
18315,18315,Carrera 54 con calle 64,10.995947,-74.795302,,0
18316,18316,Carrera 54 No. 55-147,10.99349,-74.792297,,0
18317,18317,Calle 54 con carrera 53,10.992122,-74.790332,,0
18400,18400,Calle 98 con carrera 52B Buenavista,11.012738,-74.827418,,0
18401,18401,Carrera 51B con calle 100 Sur,11.012123,-74.832183,,0
18402,18402,Carrera 51B con Calle 106 Makro,11.014585,-74.836222,,0
18403,18403,Carrera 51B con Calle 108,11.015277,-74.837222,,0
18404,18404,Colegio Aleman Norte,11.017895,-74.860823,,0
19101,19101,Calle 74 No. 49B-40,10.99855,-74.805238,,0
19104,19104,Carrera 53 con calle 78 Villa Country,11.003743,-74.806597,,0
19105,19105,Carrera 53 con calle 80,11.005328,-74.810978,,0
19106,19106,Carrera 53 con calle 82,11.006475,-74.814095,,0
19107,19107,Carrera 53 No. 82-268,11.00714,-74.815575,,0
19108,19108,Carrera 53 con calle 85,11.008348,-74.817602,,0
19109,19109,Carrera 53 con calle 89,11.010818,-74.819605,,0
19110,19110,Carrera 53 No. 91-60,11.012323,-74.822093,,0
19111,19111,Carrera 53 con calle 94,11.013023,-74.823975,,0
19117,19117,Colegio Karl C. Parrish Antigua Via Puerto Colomb,11.016592,-74.842927,,0
19118,19118,Colegio Sagrado Corazon Antigua Via Puerto Colomb,11.016593,-74.844647,,0
19119,19119,Cementerio Jardines del Recuerdo Antigua Via Puer,11.016558,-74.846957,,0
19120,19120,Universidad del Norte Ant Via Puerto Colombia nor,11.017378,-74.85142,,0
19121,19121,Colegio Internacional Britanico - nor occidente,11.016952,-74.858197,,0
19122,19122,Entrada Av. Las Dunas-Villa Campestre Antigua Via,11.018218,-74.861758,,0
19123,19123,Universidad San Martin Ant Via Puerto Colombia nor,11.019137,-74.866495,,0
19124,19124,Conj. Residencial Ciudad del Mar Antigua Via Puer,11.019798,-74.868677,,0
19125,19125,Frente Univ. Antonio Narino Antigua Via Puerto Co,11.020212,-74.870723,,0
19126,19126,Calle 14 No. 27-09,11.021062,-74.872657,,0
19127,19127,Calle 14 con carrera 25 oriente,11.022928,-74.87116,,0
19128,19128,Calle 14 No. 20-179 oriente,11.025127,-74.869367,,0
19129,19129,Calle 14 No. 16-128,11.027703,-74.86723,,0
19130,19130,Calle 14 No. 13-55,11.029703,-74.865677,,0
19131,19131,Carrera 10 No. 14-30 noroccidente,11.032765,-74.864922,,0
19132,19132,Carrera 10 No. 15-224,11.033162,-74.867252,,0
19133,19133,Carrera 13 No. 14-32,11.032433,-74.869145,,0
19134,19134,Calle 19C con carrera 17E,11.031913,-74.871667,,0
19135,19135,Calle 22 No. 17-09,11.032975,-74.873033,,0
19136,19136,Carrera 10 con calle 20A,11.033623,-74.871552,,0
19137,19137,Carrera 19 con calle 17A,11.03178,-74.870542,,0
19138,19138,Calle 17 No. 10-51,11.032745,-74.867957,,0
19140,19140,Calle 14 No. 14-46,11.029468,-74.865863,,0
19141,19141,Calle 14 con carrera 16 Esc. Pies Descalzos,11.027867,-74.867155,,0
19142,19142,Calle 14 con carrera 20 Frente Gym Master,11.025103,-74.869412,,0
19143,19143,Calle 14 con carrera 25 occidente,11.023143,-74.871013,,0
19144,19144,Calle 14 con carrera 26 Sal. Urb La Playa,11.021085,-74.872673,,0
19145,19145,Universidad el Atlantico Antigua Via Puerto Colom,11.020047,-74.871292,,0
19146,19146,Ciudad del MarAntigua Via Puerto Colombia,11.019658,-74.868687,,0
19147,19147,Universidad San Martin Ant Via Puerto Colombia sur,11.019388,-74.866568,,0
19148,19148,Villa Campestre Antigua Via Puerto Colombia,11.018168,-74.861993,,0
19149,19149,Colegio Aleman Antigua Via Puerto Colombia,11.017167,-74.85997,,0
19150,19150,Colegio Internacional Britanico - sur oriente ,11.016952,-74.858197,,0
19151,19151,Universidad del Norte Ant Via Puerto Colombia sur,11.017333,-74.85048,,0
19152,19152,Muebles Picapiedras Antigua Via Puerto Colombia,11.016517,-74.848205,,0
19153,19153,Zona franca en Salud Antigua Via Puerto Colombia,11.016475,-74.844917,,0
19154,19154,Urvisa Antigua Via Puerto Colombia,11.016433,-74.842783,,0
19155,19155,Carrera 51B con calle 106,11.01449,-74.836172,,0
19156,19156,Carrera 51B con calle 102,11.013192,-74.834267,,0
19157,19157,Carrera 51B con calle 100,11.012022,-74.832263,,0
19158,19158,Carrera 51B No. 96A-73,11.01076,-74.8279,,0
19159,19159,Carrera 51B No. 93-63,11.009725,-74.825715,,0
19160,19160,Carrera 51B con calle 90,11.008237,-74.822572,,0
19161,19161,Carrera 51B con calle 86,11.006927,-74.819753,,0
19162,19162,Carrera 51B con calle 84,11.005948,-74.81763,,0
19163,19163,Carrera 51B No. 82-43,11.00467,-74.814615,,0
19164,19164,Carrera 51B No. 79-105,11.003023,-74.810265,,0
19165,19165,Carrera 51B No. 76-85,11.002193,-74.80799,,0
19166,19166,Calle 76 con carrera 49B,10.999515,-74.808557,,0
19167,19167,Carrera 10 Con calle 15 Iglesia Cristo Resucitado,11.032835,-74.865713,,0
20002,20002,Carrera 14 Con Calle 63 Olimpica,10.909228,-74.798492,,0
20003,20003,Carrera 14 Con Calle 59 Entrada Barrio Nuevo Milen,10.908877,-74.795947,,0
20005,20005,Calle 54 Con Carrera 13B El Gran Percal,10.906455,-74.791893,,0
20006,20006,Calle 54 Con Carrera 11B,10.905077,-74.791623,,0
20007,20007,Carrera 11 Con Calle 52 Siete Bocas,10.905058,-74.789035,,0
20008,20008,Carrera 11 Con Calle 49 Iglesia Testigos de Jehova,10.905652,-74.78593,,0
20014,20014,Calle 37 Con Carrera 7,10.900177,-74.779435,,0
20015,20015,Calle 37 Con Carrera 8B,10.901977,-74.778077,,0
20016,20016,Calle 37 Con  Carrera 11,10.904057,-74.776595,,0
20020,20020,Calle 43 Con Carrera 13,10.908305,-74.780645,,0
20021,20021,Carrera 14 Con Calle 43B,10.909352,-74.781268,,0
20025,20025,Carrera 13B Con Calle 54 El Gran Percal,10.90664,-74.791577,,0
20026,20026,Calle 54 No. 14 - 110,10.910017,-74.792017,,0
20027,20027,Carrera 15 Con Calle 54 Sisben Soledad,10.910387,-74.792935,,0
20028,20028,Carrera 15 Con Calle 59 Entrada Barrio Pta De Oro,10.910698,-74.79516,,0
20029,20029,Carrera 15 Con Calle 63 Villa Linda,10.911055,-74.797862,,0
20050,20050,Carrera 40 No. 43 -07,10.980727,-74.784815,,0
20051,20051,Carrera 40 No. 40 - 37,10.980393,-74.78266,,0
20054,20054,Carrera 43 No. 50 - 12 Parque Central,10.98387,-74.789823,,0
20055,20055,Carrera 43 No. 53 ESQUINA,10.984443,-74.791898,,0
20056,20056,Calle 54 No. 41 - 77 Colegio Colon,10.983602,-74.793173,,0
20057,20057,Carrera 41 No. 52 - 69 Torres Don Alejo,10.982653,-74.79298,,0
20058,20058,Carrera 41 No. 50 - 43,10.982158,-74.790298,,0
20100,20100,Calle 65 Con Carrera 12 Ciudad Transmetro,10.904125,-74.802113,,0
20101,20101,Calle 65 Con Carrera 8 Esq. Los loteros,10.901335,-74.802702,,0
20102,20102,Entrada Ciudad Camelot,10.899415,-74.803115,,0
20103,20103,Entrada Barrio Candelaria,10.895393,-74.803785,,0
20104,20104,Calle 63 Con Carrera 5 Ent. 1 La Central,10.891485,-74.80419,,0
20114,20114,Entrada Villa Sol,10.889405,-74.803507,,0
20115,20115,Entrada Las Cometas,10.891925,-74.804013,,0
20117,20117,Entrada Barrio Villa Carmen,10.8988,-74.803067,,0
20118,20118,Calle 65 Con Carrera 8 Esq. Los Loteros 2,10.900938,-74.802592,,0
20119,20119,Entrada Barrio Manantial,10.904042,-74.801957,,0
20157,20157,Carrera 23A Con Calle 75B Esq.,10.920595,-74.808545,,0
20158,20158,Carrera 23A No. 76B - 14,10.920482,-74.810165,,0
20159,20159,Calle 77 Con Carrera 23D Esq.,10.921232,-74.811647,,0
20160,20160,Calle 79 No. 23B - 03,10.920642,-74.812593,,0
20161,20161,Calle 79 No. 21B - 15,10.919298,-74.814007,,0
20162,20162,Calle 79 No. 19 - 15,10.918085,-74.815278,,0
20164,20164,Calle 83 No. 17-65,10.917762,-74.819767,,0
20165,20165,Calle 83 No. 15-23,10.916053,-74.820395,,0
20166,20166,Carrera 12D Con Calle 84 Esq.,10.914445,-74.822835,,0
20167,20167,Calle 85 Con Carrera 13 Esq,10.915385,-74.822948,,0
20169,20169,Calle 83 No. 17- 62,10.91773,-74.81973,,0
20170,20170,Calle 81 No. 18C - 46,10.918757,-74.817398,,0
20171,20171,Calle 81 No. 19A - 22,10.919753,-74.816382,,0
20172,20172,Calle 81 No. 21C - 26,10.920972,-74.81515,,0
20173,20173,Carrera 22B No. 79 - 15,10.9201,-74.813373,,0
20174,20174,Calle 77 No. 23A - 15,10.920498,-74.811695,,0
20175,20175,Carrera 23A Con Calle 76B Esq,10.920475,-74.810265,,0
20176,20176,Carrera 23A No. 74C - 03,10.920597,-74.807845,,0
20177,20177,Carrera 15 sur No. 47C - 39,10.922763,-74.806577,,0
20178,20178,Carrera 15 Sur Con Calle 46H,10.922855,-74.804867,,0
20179,20179,Av. Circunvalar 67B Puente Peat. Velodromo,10.923185,-74.801615,,0
20180,20180,Carrera 23B Con Calle 64,10.921123,-74.799947,,0
20200,20200,Carrera 11 Calle 44A Esq. Col. Club de Leones,10.906417,-74.781622,,0
20203,20203,Calle 37 Con Carrera 8B Norte,10.901938,-74.778177,,0
20205,20205,Calle 37 Con Carrera 5B Esq.,10.899127,-74.781407,,0
20222,20222,Calle 48 No. 23-29,10.967455,-74.794725,,0
20223,20223,Carrera 23 No. 52-32,10.968305,-74.796838,,0
20224,20224,Carrera 23 con calle 53D esq,10.969852,-74.79902,,0
20225,20225,Carrera 21B con calle 53D Esq,10.96836,-74.800675,,0
20226,20226,Carrera 21B No. 60-28,10.968588,-74.803558,,0
20227,20227,Carrera 21B No. 64-26 E-Jimenez,10.968683,-74.806353,,0
20228,20228,Carrera 21B con calle 65B esq,10.968805,-74.808722,,0
20229,20229,Carrera 21B No. 68C-14,10.968897,-74.811058,,0
20230,20230,Calle 70C No. 22D Esq,10.97084,-74.810918,,0
20231,20231,Calle 70C con carrera 24C esq,10.97373,-74.81023,,0
20232,20232,Calle 70 C No. 26B-44,10.976285,-74.80979,,0
20240,20240,Carrera 27 No. 72-10,10.97793,-74.811912,,0
20241,20241,Calle 74B No. 26C7-29,10.978673,-74.814658,,0
20242,20242,Carrera 26C7 No. 75B-68,10.979957,-74.817132,,0
20243,20243,Calle 79A con Carrera 28 Esq,10.981678,-74.818478,,0
20244,20244,Calle 79A No. 34-22,10.983975,-74.817752,,0
20245,20245,Calle 79A No. 35D-50,10.986227,-74.818177,,0
20246,20246,Calle 76 con Carrea 38A Esq,10.98725,-74.815938,,0
20247,20247,Calle 76 con Carrera 39 Acolsure,10.990147,-74.814012,,0
20248,20248,Calle 76 No. 42-78 Uni. Metropolitana,10.993075,-74.813575,,0
20249,20249,Calle 79 No. 42F-94,10.994873,-74.813843,,0
20250,20250,Calle 79 con Carrera 45 Esq,10.997167,-74.81255,,0
20251,20251,Calle 76 No. 43B - 05,10.994847,-74.811178,,0
20252,20252,Calle 76 No. 42B Esq Uni. Metropolitana,10.993117,-74.813703,,0
20253,20253,Calle 76 No. 38D - 63 Acolsure,10.989677,-74.814318,,0
20254,20254,Calle 76 No. 38A - 53 Diag. Col. Betania Norte,10.987803,-74.815632,,0
20255,20255,Carrera 38 No. 76 - 106,10.9869,-74.81724,,0
20256,20256,Calle 79A No. 35C - 43,10.985725,-74.818157,,0
20257,20257,Calle 79A Con Cra 33 Fren. Nom. 33 - 30,10.983492,-74.817963,,0
20258,20258,Calle 79A No. 27 Esq,10.981268,-74.818585,,0
20259,20259,Carrea 26C7 No. 75 - 77,10.979563,-74.816695,,0
20260,20260,Calle 74B No. 26C Fren. Nom. 26C7 - 47,10.978732,-74.814478,,0
20261,20261,Carrera 27 No. 72 Fren. Nom 72 - 04,10.977868,-74.811927,,0
20262,20262,Carrera 27 No 68 - 149 Fren. Colegio Olaya,10.976935,-74.808147,,0
20263,20263,Carrera 27 No. 64 Esq,10.975983,-74.805577,,0
20264,20264,Carrera 27 con calle 63 Esq,10.975587,-74.803722,,0
20265,20265,Calle 61 No. 25 - 113,10.973987,-74.803347,,0
20266,20266,Carrera 24 No. 59-45,10.971383,-74.802755,,0
20267,20267,Carrera 24 No 54 Esq Seguro de los Andes,10.971312,-74.800838,,0
20268,20268,Carrera 24 No. 53D-29,10.971158,-74.798937,,0
20269,20269,Carrera 24 con calle 53 esq,10.969612,-74.797022,,0
20270,20270,Carrera 24 No. 48-03,10.968147,-74.794592,,0
20271,20271,Carrera 26 No. 47C-01,10.968725,-74.793432,,0
20300,20300,Portal de Soledad,10.90715,-74.800348,,1
20380,20380,Calle 84 No. 51 - 32 Macmondongo,11.005383,-74.817308,,0
20381,20381,Calle 86 Con Carrera 70 Villa Andalucia Ent. 2,11.017378,-74.812315,,0
20382,20382,Calle 85 Con Carrera 78A Esq,11.023615,-74.806923,,0
20383,20383,Via 40 Calle 80,11.023185,-74.800988,,0
20384,20384,Calle 80  con Carrear 69 Esq,11.014148,-74.80583,,0
20385,20385,Calle 82 Con Carrera 56 Esq.,11.00812,-74.811997,,0
20387,20387,Terminal de Transportes,10.908912,-74.793808,,0
20389,20389,Calle 24 Con Carrera 33A Esq,10.928907,-74.767977,,0
20390,20390,Carrera 35 Con Calle 25B Esq,10.92987,-74.770465,,0
20391,20391,Calle 26 Con Carrera 38 Esq,10.93266,-74.770463,,0
20392,20392,Carrera 39 Con Calle 24A Esq Col. Sagrado Corazon,10.934168,-74.768603,,0
20393,20393,Entrada conjunto residencial los Mangos,10.934167,-74.765282,,0
20394,20394,Calle 18 Con Carrera 36 A Esq,10.931152,-74.764512,,0
20395,20395,Calle 18 No. 32 - 59,10.92868,-74.76435,,0
20397,20397,Carrera 46 No 94 - 11,11.005008,-74.82777,,0
20400,20400,Carrera 43 No. 79 - 212 Ferreteria Sander,10.996353,-74.815472,,0
20402,20402,Carrera 43 No. 84 - 154 Narcobollo,10.998865,-74.821442,,0
20415,20415,Carrera 5 No. 66 - 78,10.891428,-74.806073,,0
20416,20416,Carrera 5 No. 68 B Esq,10.891388,-74.808235,,0
20417,20417,Calle 69 con Carrera 4,10.889648,-74.808703,,0
20418,20418,Carrera 4 Con Calle 71A,10.88937,-74.810643,,0
20419,20419,Diagonal 71 Con Transversal 1A4 Virgencita,10.888035,-74.812125,,0
20420,20420,Carrera 4 Calle 69A,10.889343,-74.808878,,0
20421,20421,Carrera 5 con Calle 69 Esq,10.891352,-74.808445,,0
20422,20422,Carrera 5 Con Calle 66A,10.891378,-74.806367,,0
20450,20450,Carrera 6 No. 89 - 75 Tienda La Economica,10.944947,-74.823853,,0
20453,20453,Carrera 2D con Calle 47,10.93293,-74.803165,,0
20454,20454,Calle 47 con Carrera 2G,10.93446,-74.80134,,0
20456,20456,Calle 24 con Carrera 31,10.926987,-74.768267,,0
20457,20457,Calle 18 con Carrera 30,10.926713,-74.764153,,0
20458,20458,Carrera 27 Con Calle 45 Exito,10.96973,-74.790445,,0
20459,20459,Carrera 26 Con Calle 47C,10.968803,-74.793522,,0
20460,20460,Carrera 18 Sur Con Calle 69A Esq,10.92185,-74.803445,,0
20464,20464,Carrera 24 Con Calle 56,10.551499,-74.473645,,0
20473,20473,Calle 98 con Carrera 47,11.007857,-74.830443,,0
20474,20474,Calle 98 con Carrera 51,11.0096,-74.829573,,0
20475,20475,Las Cometas Sur,10.890973,-74.799828,,0
20476,20476,Entrada Nuevo Colegio Granabastos,10.892458,-74.797293,,0
20477,20477,Villa Maria 1ra Etapa Sur,10.89324,-74.795803,,0
20478,20478,Villa Maria 2da Etapa Sur,10.894047,-74.794525,,0
20479,20479,Villa Carla Sur,10.895408,-74.792565,,0
20482,20482,Calle 37 Con Carrera 12 Portal de San Antonio,10.905657,-74.775618,,0
20483,20483,Portal de San Antonio,10.905932,-74.775465,,0
20484,20484,Calle 37 con Carrera 11 Norte,10.904533,-74.776442,,0
20485,20485,Calle 37 Con Carrera 7 Norte,10.90021,-74.779453,,0
20486,20486,Calle 37 Con Carrera 5B Norte,10.899122,-74.781707,,0
20490,20490,Villa Carla Norte,10.895937,-74.791992,,0
20491,20491,Villa Maria 2da Etapa Norte,10.894315,-74.794233,,0
20492,20492,Villa Maria 1ra Etapa Norte,10.893168,-74.79599,,0
20493,20493,Nuevo Colegio Granabastos Norte,10.89253,-74.797202,,0
20494,20494,Las Comentas Norte,10.890955,-74.799928,,0
20502,20502,Carrera 18 Sur con Calle 72,10.922433,-74.805117,,0
20503,20503,Carrera 18 Sur con Calle 74,10.921927,-74.806838,,0
20504,20504,Calle 74 con Carrera 23A Esq,10.920833,-74.806887,,0
20506,20506,Calle 79 con Carrera 18 ,10.917057,-74.816365,,0
20507,20507,Carrera 18 con Calle 81 ,10.917395,-74.817863,,0
20508,20508,Carrera 18 No. 81-23,10.917527,-74.818273,,0
20510,20510,Calle 74 con Carrera 18 Sur,10.921812,-74.806903,,0
20511,20511,Carrera 43 con Calle 76 Seminario,10.994982,-74.812923,,0
20513,20513,Carrera 43 No 80 - 182 Home Club,10.997342,-74.817303,,0
20515,20515,Carrera 43 No 87 - 40,11.000108,-74.824375,,0
20516,20516,Carrera 43 No 90 - 128,11.001153,-74.826645,,0
20517,20517,Carrera 43 con Calle 93,11.001678,-74.82781,,0
20518,20518,Carrera 43 No 82 - 178 Ferreteria Don Kike,10.998343,-74.819477,,0
20519,20519,Carrera 23B con Calle 67B Esq,10.9211,-74.802082,,0
20520,20520,Calle 84 Con Carrera 15A,10.916523,-74.821868,,0
20521,20521,Carrera 16 con Calle 83A Esq,10.916783,-74.82055,,0
20522,20522,Entrada Granabastos,10.887832,-74.803852,,0
20525,20525,Carrera 8 con Calle 34,10.946428,-74.788717,,0
20526,20526,Carrera 8 Con Calle 31,10.94677,-74.785825,,0
20527,20527,Centro Comercial Exito Panorama,10.944842,-74.784343,,0
20528,20528,Carrera 6B con Calle 31 Nacional de Chocolate,10.94294,-74.785247,,0
20529,20529,Carrera 6B No 33 - 76,10.942972,-74.786828,,0
20530,20530,Carrera 6B Con Calle 36B Fren Drogas Las Palmas,10.942057,-74.791518,,0
20531,20531,Carrera 6B No 38B - 02,10.941757,-74.793893,,0
20533,20533,Calle 57 Con Carrera 3 Las Cuatro Villas,10.89342,-74.793272,,0
20534,20534,Carrera 3 No 56C - 21 Iglesia Movimiento Misionero,10.892867,-74.792117,,0
20535,20535,Carrera 3 No 54C - 03 Tienda El Milagro,10.892803,-74.790272,,0
20536,20536,Calle 54B Trv 2D10 - 19,10.891348,-74.789497,,0
20537,20537,Calle 54B Con Carrera 2F  Iglesia,10.891917,-74.7896,,0
20538,20538,Carrera 3 No. 55 - 16,10.892782,-74.79065,,0
20539,20539,Carrera 3 No. 56 - 142,10.892948,-74.792595,,0
20540,20540,Calle 40 No- 14 - 68,10.910197,-74.779408,,0
20541,20541,Carrera 15B con Calle 43C Esq,10.911737,-74.78111,,0
20542,20542,Carrera 15B con Cale 44D Esq,10.912173,-74.782353,,0
20543,20543,Diagonal 43 No. 14 -191,10.910947,-74.781757,,0
20544,20544,Diagonal 43 no. 14 -29,10.909697,-74.780937,,0
20545,20545,Calle 54 No. 8A - 03 Misionera del divino maestro,10.901935,-74.790852,,0
20546,20546,Carrera 8 No. 52A - 15,10.901947,-74.789347,,0
20547,20547,Carrera 7A No. 50C - 21,10.901785,-74.787425,,0
20549,20549,Carrera 6C No. 47 - 51,10.90106,-74.783673,,0
20550,20550,Calle 47 No. 5B - 69,10.899877,-74.782968,,0
20551,20551,Calle 47 No. 5B - 16,10.899358,-74.782847,,0
20552,20552,Calle 47 No. 6A - 22,10.900828,-74.783167,,0
20553,20553,Carrera 5 No 47C - 08,10.90098,-74.784192,,0
20554,20554,Calle 48 No. 6 E - 22,10.9017,-74.785527,,0
20555,20555,Carrera 7A No. 50 B 11,10.901863,-74.787075,,0
20556,20556,Carrera 8 No. 53 A Esq. Hospital materno infantil,10.90196,-74.789625,,0
20557,20557,Calle 54 No. 8B - 16,10.902397,-74.79088,,0
20558,20558,Calle 54 No. 11 - 18,10.904798,-74.791417,,0
20559,20559,Calle 54 con Carrera 13CB ESQ EL GRAN PERCAL,10.90627,-74.791748,,0
20560,20560,Carrera 6 con Calle 92 CANAC,10.944378,-74.825675,,0
20561,20561,Carrera 40 No. 38 - 25,10.980025,-74.781447,,0
20562,20562,Carrera 40 No. 36 - 25,10.97969,-74.780415,,0
20563,20563,Carrera 40 No. 35 - 25,10.979358,-74.779583,,0
20564,20564,Carrera 43 No. 35 - 38,10.981448,-74.779293,,0
20565,20565,Carrera 43 No. 36 - 30,10.98163,-74.78013,,0
20566,20566,Carrera 46 Con Calle 90 Uniautonoma Sur,11.003378,-74.824262,,0
20567,20567,Club Campestre,11.017588,-74.852857,,0
20568,20568,Calle 86 con Carrera 73 Esq,11.018875,-74.810955,,0
20569,20569,Calle 85 No. 81 - 32,11.026025,-74.804157,,0
20570,20570,Calle 80 No 65 - 45,11.01224,-74.806352,,0
20572,20572,Calle 37C No 3D-04,10.938568,-74.791708,,0
20573,20573,Carrera 1H con Calle 37F esq,10.933207,-74.793172,,0
20574,20574,Carrera 19 C con Calle 21 C,11.031387,-74.873157,,0
20576,20576,Universidad Antonio Nariño,11.019987,-74.870365,,0
20577,20577,Avenida circunvalar oreja del puente,10.932307,-74.782143,,0
20578,20578,Carrera 39 C No. 18H - 17,10.937393,-74.779025,,0
20579,20579,Carrera 39C  con Calle 32,10.936543,-74.77692,,0
20580,20580,Carrera 39C No. 28 - 109,10.9359,-74.775368,,0
20581,20581,Carrera 39C No. 27C - 13,10.935152,-74.773565,,0
20582,20582,Calle 27C con Carrera 39,10.933992,-74.772872,,0
20583,20583,Calle 27C con Carrera 25,10.931608,-74.773322,,0
20584,20584,Calle 27C con Carrera 23 Esq.,10.929158,-74.773778,,0
20585,20585,Calle 19 con Carrera 1E,10.936397,-74.780392,,0
20586,20586,Carrera 39 Con Calle 21B,10.934385,-74.766965,,0
20588,20588,Calle 90 - 3 Sur 36 ,10.933027,-74.8246,,0
20589,20589,Carrera 6A Sur No 90 -56,10.93181,-74.82525,,0
20590,20590,Carrera 4 Sur No 98 - 136,10.93278,-74.829912,,0
20591,20591,Calle 107 No 4 Sur - 15,10.933343,-74.833458,,0
20592,20592,Carrera 4 Sur No. 99C - 77,10.933253,-74.83255,,0
20593,20593,Carrera 4 sur con calle 96,10.93283,-74.827703,,0
20594,20594,Carrera 4 Sur No. 91 - 27,10.932717,-74.825908,,0
20595,20595,Calle 91 con Carrera 2B Esq,10.93677,-74.82493,,0
20597,20597,Calle 94 No. 5B - 22,10.943548,-74.826558,,0
20598,20598,Carulla Las Dunas,11.019047,-74.864892,,0
20600,20600,Carrera 2 con Calle 80,10.936287,-74.821512,,0
20602,20602,Calle 80 No. 1 - 17,10.93366,-74.820983,,0
20603,20603,Calle 78 con Carrera 2 Sur,10.931725,-74.819082,,0
20604,20604,Carrera 5 Sur mega colegio,10.931035,-74.821485,,0
20605,20605,Carrera 2 Sur No. 80 - 80,10.933182,-74.821945,,0
20606,20606,Carrera 2 Sur No 88 - 68,10.933558,-74.823372,,0
20607,20607,Calle 78 con Carrera 3 sur Camino Santa Maria,10.930465,-74.818995,,0
20608,20608,Calle 60 No. 45 - 57,10.990025,-74.795728,,0
20609,20609,Calle 61 No. 44 - 19,10.988078,-74.79708,,0
20610,20610,Calle 61 No. 41 - 71,10.985537,-74.797795,,0
20611,20611,Calle 61 No. 37 - 23,10.98304,-74.799315,,0
20613,20613,Calle 61 No. 31-11 Frente a la tienda La Preferida,10.978438,-74.801692,,0
20614,20614,Calle 61 No. 27 - 59,10.976123,-74.803017,,0
20616,20616,Calle 61 No. 24 - 29,10.971757,-74.803563,,0
20617,20617,Calle 61 No. 21B - 57,10.96917,-74.803658,,0
20618,20618,Calle 60 No. 20B - 07 Esquina,10.967227,-74.80339,,0
20619,20619,Calle 60 No. 18 - 45,10.964842,-74.80418,,0
20620,20620,Calle 60 No. 15 - 25,10.961865,-74.80594,,0
20621,20621,Carrera 14 No. 57 - 49,10.959957,-74.806052,,0
20622,20622,Carrera 14 con calle 56A,10.958948,-74.803842,,0
20623,20623,Carrera 13 No. 56A - 18,10.95786,-74.80514,,0
20624,20624,Carrera 14 No. 53D - 34,10.959328,-74.80482,,0
20625,20625,Carrera 14 No. 57 - 46,10.959983,-74.80599,,0
20626,20626,Calle 60 No. 15 - 26,10.961862,-74.80584,,0
20627,20627,Calle 60 con Carrera 18 Esquina,10.964233,-74.804415,,0
20628,20628,Calle 60 No. 20B - 18,10.96727,-74.803315,,0
20630,20630,Calle 61 No. 23 - 10,10.970148,-74.803552,,0
20631,20631,Calle 61 No. 24 - 136,10.972732,-74.803432,,0
20632,20632,Calle 61 No. 26 - 14,10.974468,-74.803327,,0
20633,20633,Calle 61 No. 27 - 124 Autoservicio La Gloria,10.976558,-74.802785,,0
20634,20634,Calle 61 No. 31 - 52,10.97878,-74.801573,,0
20635,20635,Calle 61 No. 35 - 12,10.981428,-74.800193,,0
20636,20636,Calle 61 No. 37 - 44,10.983163,-74.799225,,0
20637,20637,Calle 61 No. 41 - 50,10.985472,-74.7978,,0
20638,20638,Calle 61 Con Carrera 44B,10.988985,-74.796833,,0
20639,20639,Carrera 4 Con Calle 71,10.889353,-74.810478,,0
20640,20640,Conjunto Residencial Parque 100,11.000593,-74.837017,,0
20641,20641,Calle 99C No. 43 - 150 Tarragona,11.003703,-74.836297,,0
20643,20643,Carrera 11 Con Calle 46,10.906155,-74.783343,,0
20644,20644,Carrera 14 No. 47A - 100,10.90856,-74.78632,,0
20645,20645,Carrera 14 Con Calle 50,10.908965,-74.787793,,0
20646,20646,Carrera 14 Con Calle 52,10.908023,-74.789378,,0
20650,20650,Carrera 24 con Calle 59,10.92152,-74.796022,,0
20651,20651,Carrera 24 Calle 57D,10.921237,-74.794565,,0
20652,20652,Carrera 24 Calle 55B,10.920945,-74.793112,,0
20653,20653,Carrera 24 Calle 54 Soledad,10.921297,-74.791322,,0
20654,20654,Carrera 24 Calle 48,10.92143,-74.789708,,0
20655,20655,Carrera 24 Calle 45A1 - 03,10.921263,-74.788557,,0
20656,20656,Calle 45 Carrera 25B - 70,10.922297,-74.787265,,0
20657,20657,Carrera 24 Calle 45A - 20,10.921298,-74.78853,,0
20658,20658,Carrera 24 Calle 44 Norte,10.921452,-74.789715,,0
20659,20659,Carrera 24 Calle 53 Esq Soledad,10.92151,-74.790858,,0
20660,20660,Carrera 24 Calle 54C,10.921133,-74.79225,,0
20661,20661,Calle 56 Carrera 22C,10.919863,-74.793343,,0
20662,20662,Calle 56 Carrera 20 Soledad,10.918265,-74.793335,,0
20663,20663,Carrera 18 Calle 56 - 46,10.917155,-74.79393,,0
20664,20664,Carrera 18 No 59 - 18,10.917143,-74.796177,,0
20665,20665,Carrera 18 No. 62 - 10,10.917132,-74.798233,,0
20666,20666,Calle 45 con Carrera 24B Esq,10.921752,-74.78763,,0